City_ID,City,Country,Lat,Lng,Max Temp,Humidity,Cloudiness,Wind Speed,Current Description
0,Neyshabur,IR,36.2133,58.7958,83.26,20,13,6.17,few clouds
1,Jamestown,US,42.097,-79.2353,83.95,61,20,9.22,few clouds
2,Kodiak,US,57.79,-152.4072,54.91,88,100,5.75,light rain
3,Busselton,AU,-33.65,115.3333,52.45,77,97,1.28,overcast clouds
4,Longyearbyen,SJ,78.2186,15.6401,49.84,81,75,4.61,light intensity drizzle
5,Talcahuano,CL,-36.7167,-73.1167,51.48,100,100,13.8,drizzle
6,Sarai Alamgir,PK,32.9012,73.7559,84.85,76,44,4.47,scattered clouds
7,Rikitea,PF,-23.1203,-134.9692,70.88,63,84,21.14,broken clouds
8,Castro,BR,-24.7911,-50.0119,63.59,76,95,7.0,overcast clouds
9,Ostrovnoy,RU,68.0531,39.5131,67.37,72,100,12.64,overcast clouds
10,Victoria,HK,22.2855,114.1577,81.32,92,86,5.01,overcast clouds
11,New Norfolk,AU,-42.7826,147.0587,47.91,72,90,1.99,overcast clouds
12,Saint-Philippe,RE,-21.3585,55.7679,69.39,75,44,12.82,scattered clouds
13,Pontian Kecil,MY,1.4801,103.3899,79.12,81,100,3.6,overcast clouds
14,Namibe,AO,-15.1961,12.1522,63.23,77,75,11.5,broken clouds
15,Bamako,ML,12.65,-8.0,86.41,58,40,3.44,light rain
16,Manuk Mangkaw,PH,4.8,119.85,83.35,72,100,5.57,overcast clouds
17,Kinsale,IE,51.7075,-8.5306,70.23,48,75,14.97,broken clouds
18,Hualmay,PE,-11.0964,-77.6139,64.69,73,100,9.62,overcast clouds
19,Kyabe,TD,9.4515,18.9449,78.75,86,93,3.53,light rain
20,Lipin Bor,RU,60.2622,37.9763,75.18,59,10,5.37,clear sky
21,Castanos,MX,26.7833,-101.4167,83.34,59,0,4.61,clear sky
22,Punta Arenas,CL,-53.15,-70.9167,39.22,81,75,6.91,broken clouds
23,Chokurdakh,RU,70.6333,147.9167,38.34,91,57,7.07,broken clouds
24,Arraial Do Cabo,BR,-22.9661,-42.0278,93.16,54,0,8.05,clear sky
25,Atuona,PF,-9.8,-139.0333,76.59,71,59,17.25,broken clouds
26,Provideniya,RU,64.3833,-173.3,45.43,88,100,17.13,moderate rain
27,Shubarkuduk,KZ,49.1447,56.4872,79.27,29,84,10.29,broken clouds
28,Vaini,TO,-21.2,-175.2,75.36,94,100,4.61,overcast clouds
29,Khatanga,RU,71.9667,102.5,56.55,66,0,7.67,clear sky
30,Hilo,US,19.7297,-155.09,77.29,85,20,4.61,few clouds
31,Esperance,AU,-33.8667,121.9,48.04,71,100,6.29,overcast clouds
32,Mahebourg,MU,-20.4081,57.7,70.25,73,40,11.5,scattered clouds
33,Hermanus,ZA,-34.4187,19.2345,57.99,75,21,9.82,few clouds
34,Ushuaia,AR,-54.8,-68.3,40.66,87,75,16.11,light rain
35,Portland,US,45.5234,-122.6762,65.89,77,20,5.99,few clouds
36,Thompson,CA,55.7435,-97.8558,55.56,100,100,8.05,overcast clouds
37,Yining,CN,29.0361,114.5636,79.12,79,7,2.51,clear sky
38,Vestmanna,FO,62.1564,-7.1664,52.72,66,20,12.66,few clouds
39,Bluff,NZ,-46.6,168.3333,50.14,87,90,11.34,overcast clouds
40,Lae,PG,-6.7221,146.9847,75.51,80,63,5.97,broken clouds
41,Togul,RU,53.465,85.9128,56.1,70,1,4.85,clear sky
42,Albany,US,42.6001,-73.9662,83.68,94,100,4.03,overcast clouds
43,Kavieng,PG,-2.5744,150.7967,80.89,76,100,6.62,overcast clouds
44,Pevek,RU,69.7008,170.3133,34.3,99,100,3.18,snow
45,Puerto Ayora,EC,-0.7393,-90.3518,75.16,90,39,5.99,scattered clouds
46,Mataura,NZ,-46.1927,168.8643,47.55,89,100,3.96,overcast clouds
47,Kota Kinabalu,MY,5.9749,116.0724,75.18,100,40,5.01,light rain
48,George,ZA,-33.963,22.4617,56.75,82,40,8.05,scattered clouds
49,Bonavista,CA,48.6499,-53.1147,71.55,69,86,12.62,overcast clouds
50,Kruisfontein,ZA,-34.0033,24.7314,56.12,84,65,11.88,broken clouds
51,Severo-Kurilsk,RU,50.6789,156.125,53.28,89,100,5.23,overcast clouds
52,Tasiilaq,GL,65.6145,-37.6368,41.77,74,15,3.4,few clouds
53,Port Hardy,CA,50.6996,-127.4199,55.58,94,75,0.0,broken clouds
54,Tecoanapa,MX,16.5167,-98.75,83.95,67,15,1.23,few clouds
55,Hershey,US,40.2859,-76.6503,84.06,74,0,6.91,clear sky
56,Mar Del Plata,AR,-38.0023,-57.5575,56.08,80,40,10.36,scattered clouds
57,Saskylakh,RU,71.9167,114.0833,50.27,85,24,1.57,few clouds
58,Okha,RU,53.5739,142.9478,54.0,92,94,19.77,overcast clouds
59,Dikson,RU,73.5069,80.5464,45.99,92,92,16.91,overcast clouds
60,Rawlins,US,41.7911,-107.2387,80.49,28,0,8.05,clear sky
61,Chadiza,ZM,-14.0678,32.4392,71.38,32,0,6.31,clear sky
62,Qaanaaq,GL,77.484,-69.3632,42.85,58,10,0.54,clear sky
63,Gizo,SB,-8.103,156.8419,81.37,67,32,3.78,scattered clouds
64,Naze,JP,28.3667,129.4833,79.72,83,99,6.58,overcast clouds
65,Bengkulu,ID,-3.8004,102.2655,74.82,85,100,4.29,overcast clouds
66,Pisco,PE,-13.7,-76.2167,62.02,88,100,4.61,mist
67,Mayumba,GA,-3.432,10.6554,71.76,81,69,8.84,broken clouds
68,Saint-Leu,RE,-21.15,55.2833,68.86,72,30,4.29,scattered clouds
69,Kunashak,RU,55.7032,61.5498,79.32,62,1,4.88,clear sky
70,Lubawa,PL,53.5043,19.7497,87.4,37,72,10.85,broken clouds
71,Verkhoyansk,RU,67.5447,133.385,56.44,54,100,2.59,overcast clouds
72,Neufahrn,DE,48.25,12.4333,94.73,52,20,6.82,light rain
73,Hobart,AU,-42.8794,147.3294,48.25,90,100,5.75,overcast clouds
74,Zhezkazgan,KZ,47.8043,67.7144,73.2,35,60,11.72,broken clouds
75,Monte Azul Paulista,BR,-20.9072,-48.6414,90.55,20,0,11.05,clear sky
76,Palencia,ES,42.4167,-4.5,86.92,33,31,20.15,scattered clouds
77,Skiathos,GR,39.1623,23.4909,85.96,65,0,3.44,clear sky
78,Yanam,IN,16.7333,82.2167,77.23,89,100,2.51,overcast clouds
79,Golden,US,39.7555,-105.2211,89.1,38,40,4.0,scattered clouds
80,Coquimbo,CL,-29.9533,-71.3436,55.13,71,0,6.91,clear sky
81,Carnarvon,AU,-24.8667,113.6333,63.52,57,0,15.39,clear sky
82,Camaqua,BR,-30.8511,-51.8122,53.17,76,100,7.63,overcast clouds
83,Maltahohe,NA,-24.8333,16.9833,73.18,8,3,13.67,clear sky
84,Jizan,SA,17.3333,42.6667,85.14,48,85,9.46,light rain
85,Tapiramuta,BR,-11.8472,-40.7914,70.41,65,99,6.06,overcast clouds
86,Aden,YE,12.7794,45.0367,86.77,68,6,11.23,clear sky
87,Bannu,PK,32.9854,70.6027,98.38,36,2,3.58,clear sky
88,Yuksekova,TR,37.5736,44.2872,89.35,17,20,10.36,few clouds
89,Schwanewede,DE,53.2333,8.6,70.02,56,62,1.99,broken clouds
90,Lebu,CL,-37.6167,-73.65,52.02,95,100,5.26,moderate rain
91,Ilulissat,GL,69.2167,-51.1,46.42,76,75,3.44,broken clouds
92,Sembakung,ID,3.8167,117.25,74.14,99,57,0.47,broken clouds
93,Port-De-Bouc,FR,43.4,4.9833,96.75,48,0,14.97,clear sky
94,Xuddur,SO,4.1213,43.8894,82.02,38,50,17.11,scattered clouds
95,Hofn,IS,64.2539,-15.2082,57.22,58,0,6.91,clear sky
96,Iralaya,HN,15.0,-83.2333,82.56,69,100,12.17,overcast clouds
97,Isangel,VU,-19.55,169.2667,75.31,94,40,3.44,scattered clouds
98,Broken Hill,AU,-31.95,141.4333,46.65,67,0,15.26,clear sky
99,Cape Town,ZA,-33.9258,18.4232,63.01,77,20,10.36,few clouds
100,Tanggu,CN,39.0211,117.6469,89.56,70,0,8.41,clear sky
101,Bolshaya Sosnova,RU,57.6713,54.6029,70.59,60,99,3.09,overcast clouds
102,Port Lincoln,AU,-34.7333,135.8667,54.14,69,97,14.45,overcast clouds
103,Port Alfred,ZA,-33.5906,26.891,62.19,81,24,4.0,few clouds
104,Axim,GH,4.8699,-2.2405,78.44,62,12,9.86,few clouds
105,Upernavik,GL,72.7868,-56.1549,42.73,92,100,7.63,overcast clouds
106,Dingle,PH,10.9995,122.6711,75.61,90,98,4.61,light rain
107,Uchiza,PE,-8.4592,-76.4633,83.48,57,74,2.66,broken clouds
108,Muros,ES,42.7762,-9.0603,83.16,50,29,15.57,scattered clouds
109,Sorong,ID,-0.8833,131.25,79.74,83,100,7.78,light rain
110,Umm Kaddadah,SD,13.6017,26.6876,91.92,36,71,7.02,broken clouds
111,Warri,NG,5.5167,5.75,81.19,63,100,7.43,overcast clouds
112,Tiksi,RU,71.6872,128.8694,39.27,98,74,2.62,broken clouds
113,Acapulco,MX,16.8634,-99.8901,84.02,70,40,5.75,scattered clouds
114,Myitkyina,MM,25.3833,97.4,74.17,99,67,0.72,broken clouds
115,Pringsewu,ID,-5.3582,104.9744,72.54,96,29,1.54,scattered clouds
116,Bredasdorp,ZA,-34.5322,20.0403,56.8,69,47,11.79,scattered clouds
117,Faanui,PF,-16.4833,-151.75,77.81,76,58,24.92,light rain
118,Katsuura,JP,35.1333,140.3,72.61,81,94,8.93,overcast clouds
119,Pontivy,FR,48.0,-3.0,75.04,29,15,17.2,few clouds
120,Kapaa,US,22.0752,-159.319,73.72,92,75,5.75,broken clouds
121,Sagua La Grande,CU,22.8067,-80.0756,85.19,62,18,14.29,few clouds
122,Yulara,AU,-25.2406,130.9889,49.6,33,0,9.13,clear sky
123,Issoudun,FR,47.0,1.8333,81.25,41,0,12.66,clear sky
124,Shimoda,JP,34.6667,138.95,72.1,84,95,8.21,overcast clouds
125,Bull Savanna,JM,17.8868,-77.5902,86.25,56,80,9.08,broken clouds
126,San Marcos,US,33.1434,-117.1661,81.97,78,0,1.99,clear sky
127,Iturama,BR,-19.7281,-50.1956,90.09,22,0,6.31,clear sky
128,Cerro Largo,BR,-28.1486,-54.7381,62.46,56,4,4.56,clear sky
129,Torbay,CA,47.6666,-52.7314,86.88,49,40,16.11,scattered clouds
130,Natal,BR,-5.795,-35.2094,86.22,58,40,21.85,scattered clouds
131,Bandarbeyla,SO,9.4942,50.8122,76.89,80,0,32.32,clear sky
132,Tashtyp,RU,52.7939,89.8983,56.97,60,81,5.39,broken clouds
133,Fortuna,US,40.5982,-124.1573,63.93,89,0,3.44,clear sky
134,Emerald,AU,-23.5333,148.1667,61.34,89,3,1.39,light rain
135,Sao Filipe,CV,14.8961,-24.4956,77.77,80,68,9.75,broken clouds
136,La Ronge,CA,55.1001,-105.2842,53.85,87,100,10.36,light intensity drizzle
137,Lisieux,FR,49.1667,0.1667,73.33,35,1,14.5,clear sky
138,Wlodawa,PL,51.55,23.55,85.95,42,14,7.23,few clouds
139,Sitka,US,57.0531,-135.33,57.09,88,100,9.22,overcast clouds
140,Ratnagiri,IN,16.9833,73.3,78.91,88,100,21.36,light rain
141,Waipawa,NZ,-41.4122,175.5153,50.94,76,100,10.51,overcast clouds
142,Karasuk,RU,53.7377,78.0403,64.8,57,1,8.52,clear sky
143,Yarada,IN,17.65,83.2667,80.92,83,75,5.75,mist
144,Beira,MZ,-19.8436,34.8389,73.49,78,0,11.5,clear sky
145,Mazatlan,MX,23.2167,-106.4167,90.01,79,40,1.99,scattered clouds
146,Touros,BR,-5.1989,-35.4608,82.2,68,23,18.19,few clouds
147,Nouadhibou,MR,20.931,-17.0347,70.74,89,1,14.76,clear sky
148,Lavrentiya,RU,65.5833,-171.0,38.79,92,100,11.86,light rain
149,Hambantota,LK,6.1241,81.1185,79.14,94,20,11.5,few clouds
150,Barrow,US,71.2906,-156.7887,50.31,87,76,5.37,broken clouds
151,Dedza,MW,-14.3779,34.3332,61.59,47,0,4.25,clear sky
152,Oranjestad,AW,12.524,-70.027,87.75,66,20,23.02,few clouds
153,Plonsk,PL,52.6235,20.3755,87.84,40,37,7.81,scattered clouds
154,Mount Isa,AU,-20.7333,139.5,69.57,43,75,10.36,broken clouds
155,Damaturu,NG,11.747,11.9608,86.85,50,96,7.34,overcast clouds
156,Tuktoyaktuk,CA,69.4541,-133.0374,62.6,72,40,12.66,scattered clouds
157,Ouesso,CG,1.6136,16.0517,77.49,80,98,2.55,light rain
158,Portree,GB,57.4129,-6.1942,57.52,70,14,13.24,few clouds
159,Chapais,CA,49.7834,-74.8492,64.18,34,7,3.94,clear sky
160,Nha Trang,VN,12.25,109.1833,78.8,88,100,6.11,overcast clouds
161,Hithadhoo,MV,-0.6,73.0833,82.56,70,100,9.53,overcast clouds
162,Zeya,RU,53.75,127.2667,66.72,98,100,8.59,moderate rain
163,Fukue,JP,32.6881,128.8419,82.8,87,8,10.74,clear sky
164,Thunder Bay,CA,48.4001,-89.3168,71.58,68,40,10.36,scattered clouds
165,Moba,CN,33.2288,105.0179,64.6,96,0,4.03,clear sky
166,Lewistown,US,40.5992,-77.5714,79.18,100,20,0.0,few clouds
167,East London,ZA,-33.0153,27.9116,65.34,72,0,4.61,clear sky
168,Muli,MV,2.9167,73.5667,81.97,77,100,14.9,overcast clouds
169,Manggar,ID,-2.8833,108.2667,77.85,78,100,1.3,overcast clouds
170,Vienenburg,DE,51.95,10.5667,69.12,82,94,10.54,overcast clouds
171,Broome,US,42.2506,-75.833,82.02,84,0,4.61,clear sky
172,Nikolskoye,RU,59.7035,30.7861,84.09,48,6,5.97,clear sky
173,Finschhafen,PG,-6.6024,147.8681,78.87,79,90,8.75,overcast clouds
174,Ostroda,PL,53.6967,19.9649,84.94,39,62,9.82,broken clouds
175,Sao Caetano De Odivelas,BR,-0.75,-48.02,88.81,55,50,8.19,scattered clouds
176,Manakara,MG,-22.1333,48.0167,67.78,83,0,8.84,clear sky
177,Sao Joao Da Barra,BR,-21.6403,-41.0511,87.89,55,2,11.79,clear sky
178,Ribeira Grande,PT,38.5167,-28.7,79.2,78,20,4.61,few clouds
179,Bay City,US,43.5945,-83.8889,77.11,74,75,11.5,broken clouds
180,Salalah,OM,17.0151,54.0924,78.89,94,75,6.91,broken clouds
181,Krasnoarmeysk,RU,51.0239,45.6969,75.56,48,95,9.37,overcast clouds
182,Hasaki,JP,35.7333,140.8333,72.28,75,100,10.33,overcast clouds
183,Dalaba,GN,10.7,-12.25,68.61,90,88,4.36,light rain
184,Ekibastuz,KZ,51.6667,75.3667,69.62,38,2,5.84,clear sky
185,Baruun-Urt,MN,46.6806,113.2792,66.78,57,5,6.93,clear sky
186,Sun City West,US,33.662,-112.3413,92.84,53,0,3.44,clear sky
187,Gilbues,BR,-9.8317,-45.3439,94.23,26,20,7.23,few clouds
188,Butaritari,KI,3.0707,172.7902,81.64,77,22,12.53,few clouds
189,Shadrinsk,RU,56.0852,63.6335,67.95,60,9,1.43,clear sky
190,Qaqortoq,GL,60.7167,-46.0333,45.79,93,100,6.78,light rain
191,Soledade,BR,-28.8183,-52.5103,57.18,64,58,5.19,broken clouds
192,Avarua,CK,-21.2078,-159.775,71.65,83,75,16.11,broken clouds
193,Korcula,HR,42.9622,17.1369,80.76,70,0,10.38,clear sky
194,Yellowknife,CA,62.456,-114.3525,59.56,67,75,5.75,broken clouds
195,Jardim,BR,-21.4803,-56.1381,71.69,64,99,3.83,overcast clouds
196,Sergeyevka,KZ,53.88,67.4158,67.14,62,26,3.24,scattered clouds
197,Dorobantu,RO,44.2167,26.95,93.04,27,52,14.05,broken clouds
198,Tiarei,PF,-17.5333,-149.3333,71.62,79,76,27.6,light rain
199,Semey,KZ,50.4111,80.2275,66.43,33,0,11.03,clear sky
200,Bethel,US,41.3712,-73.414,89.15,65,0,3.44,clear sky
201,Wanning,CN,18.8003,110.3967,80.62,86,100,9.06,overcast clouds
202,Along,IN,28.1667,94.7667,76.14,98,49,0.56,scattered clouds
203,Nome,US,64.5011,-165.4064,48.27,93,100,4.61,overcast clouds
204,Georgetown,MY,5.4112,100.3354,84.13,87,40,3.44,scattered clouds
205,Panjab,AF,34.388,67.0233,61.65,34,19,7.05,few clouds
206,Lumby,CA,50.2498,-118.969,60.37,76,15,2.3,few clouds
207,Saint Anthony,US,45.0205,-93.218,83.84,60,0,13.8,clear sky
208,Innellan,GB,55.8919,-4.9616,63.99,59,44,15.26,scattered clouds
209,Lorengau,PG,-2.0226,147.2712,79.57,80,100,1.3,overcast clouds
210,Klaksvik,FO,62.2266,-6.589,54.52,78,39,17.2,scattered clouds
211,Puerto Leguizamo,CO,-0.1934,-74.7819,72.72,99,100,1.57,moderate rain
212,Linkoping,SE,58.4109,15.6216,66.58,80,100,9.22,overcast clouds
213,Markivka,UA,49.5229,39.5705,76.55,57,100,10.54,overcast clouds
214,Kieta,PG,-6.2167,155.6333,78.3,83,94,4.7,overcast clouds
215,Sangin,AF,32.0728,64.8359,95.14,8,0,10.11,clear sky
216,Roald,NO,62.5833,6.1333,62.17,62,40,23.02,light rain
217,Shu,KZ,43.5983,73.7614,79.0,36,100,6.51,overcast clouds
218,Le Port,RE,-20.9373,55.2919,69.8,65,49,4.34,scattered clouds
219,Bundaberg,AU,-24.85,152.35,65.21,99,100,3.44,overcast clouds
220,Badiraguato,MX,25.3667,-107.5167,83.75,59,100,2.06,overcast clouds
221,Banda Aceh,ID,5.5577,95.3222,79.81,78,71,12.77,broken clouds
222,Nhulunbuy,AU,-12.2333,136.7667,74.01,94,59,0.0,broken clouds
223,Cidreira,BR,-30.1811,-50.2056,58.01,74,94,15.66,overcast clouds
224,Boddam,GB,57.4667,-1.7833,62.98,61,64,11.36,broken clouds
225,College,US,64.8569,-147.8028,55.35,93,100,6.91,overcast clouds
226,San Jeronimo,PE,-11.9472,-75.2829,58.93,46,100,2.26,overcast clouds
227,Valparaiso,CL,-33.0393,-71.6273,62.83,41,0,14.97,clear sky
228,Kuito,AO,-12.3833,16.9333,79.21,15,20,7.78,few clouds
229,Santa Cruz Cabralia,BR,-16.2781,-39.0247,79.03,73,75,13.8,broken clouds
230,Kochi,IN,9.9399,76.2602,77.02,89,100,12.59,light rain
231,Buala,SB,-8.145,159.5921,78.58,80,82,1.19,broken clouds
232,Port Keats,AU,-14.25,129.55,72.66,81,31,4.68,scattered clouds
233,Chinsali,ZM,-10.5414,32.0816,67.6,38,0,5.46,clear sky
234,Sasykoli,RU,47.5515,46.9968,87.08,24,100,11.1,overcast clouds
235,Polunochnoye,RU,60.8697,60.4153,65.88,70,81,4.59,broken clouds
236,Hami,CN,42.8,93.45,85.01,37,71,5.26,broken clouds
237,Neftegorsk,RU,52.802,51.166,76.64,41,80,4.05,broken clouds
238,Talnakh,RU,69.4865,88.3972,61.21,86,80,4.14,broken clouds
239,Imphal,IN,24.8167,93.95,72.86,97,100,1.88,overcast clouds
240,Ortigueira,BR,-24.2083,-50.9494,67.69,64,93,4.16,overcast clouds
241,San Angelo,US,31.4638,-100.437,91.58,39,0,8.05,clear sky
242,Santa Cruz,BO,-17.8,-63.1667,73.45,46,75,16.11,broken clouds
243,Heishan,CN,41.6892,122.1128,75.04,85,79,4.85,broken clouds
244,Pangai,TO,-19.8,-174.35,76.1,84,100,15.99,light rain
245,Seymchan,RU,62.8833,152.4333,53.29,91,90,1.01,overcast clouds
246,Yar-Sale,RU,66.8333,70.8333,63.19,64,99,7.61,overcast clouds
247,Mount Gambier,AU,-37.8333,140.7667,41.79,98,37,4.29,scattered clouds
248,Alice Springs,AU,-23.7,133.8833,44.15,57,0,4.61,clear sky
249,Dumas,US,35.8656,-101.9732,84.61,51,0,8.05,clear sky
250,Maningrida,AU,-12.0667,134.2667,73.92,92,79,5.61,broken clouds
251,Dolores,AR,-36.3132,-57.6792,55.92,41,9,7.4,clear sky
252,Lompoc,US,34.6391,-120.4579,64.54,96,100,4.61,mist
253,Apozol,MX,21.4833,-103.1,77.41,47,28,2.08,scattered clouds
254,Madang,PG,-5.2246,145.7966,76.42,92,95,1.43,overcast clouds
255,Berdigestyakh,RU,62.0989,126.6992,64.69,97,100,7.38,overcast clouds
256,Santa Maria,BR,-29.6842,-53.8069,54.7,71,100,3.44,overcast clouds
257,Maxixe,MZ,-23.8597,35.3472,75.02,78,0,9.22,clear sky
258,Bathsheba,BB,13.2167,-59.5167,88.41,80,40,24.16,scattered clouds
259,General Roca,AR,-39.0333,-67.5833,48.61,36,100,7.99,overcast clouds
260,Tyumentsevo,RU,53.3224,81.498,61.93,53,4,4.54,clear sky
261,Andenes,NO,69.3143,16.1194,56.93,76,75,13.8,light rain
262,Ayan,RU,56.45,138.1667,55.17,99,100,14.03,light rain
263,Kodino,RU,63.7198,39.6447,75.78,61,40,4.54,scattered clouds
264,Mayahi,NE,13.9553,7.6712,90.25,42,77,8.05,broken clouds
265,Byron Bay,AU,-28.65,153.6167,64.71,91,100,6.67,overcast clouds
266,Beringovskiy,RU,63.05,179.3167,46.78,87,73,11.32,broken clouds
267,Saint-Francois,FR,46.4154,3.9054,83.64,48,100,17.27,overcast clouds
268,Yuci,CN,37.6803,112.7319,80.35,65,0,6.71,clear sky
269,Russell,US,32.3502,-85.1999,89.38,62,0,0.0,clear sky
270,Nouakchott,MR,18.0858,-15.9785,80.47,73,81,11.03,broken clouds
271,Nieves,PH,15.3274,120.9485,80.11,97,100,0.87,light rain
272,Luderitz,NA,-26.6481,15.1594,63.79,63,92,11.41,overcast clouds
273,Arlit,NE,18.7369,7.3853,88.97,44,13,26.31,light rain
274,Tuatapere,NZ,-46.1333,167.6833,46.74,93,80,4.36,broken clouds
275,Inyonga,TZ,-6.7167,32.0667,76.53,30,27,4.07,scattered clouds
276,Sisimiut,GL,66.9395,-53.6735,47.43,79,100,5.86,overcast clouds
277,Whitehorse,CA,60.7161,-135.0538,56.17,73,75,17.27,broken clouds
278,Ponta Do Sol,PT,32.6667,-17.1,83.71,67,0,4.59,clear sky
279,Macamic,CA,48.7502,-78.9996,69.66,54,6,4.9,clear sky
280,Chuy,UY,-33.6971,-53.4616,54.19,66,10,8.08,clear sky
281,Svetlaya,RU,46.5389,138.3297,64.9,98,100,8.14,light rain
282,Saint George,US,37.1041,-113.5841,81.79,69,100,3.44,overcast clouds
283,Vao,NC,-22.6667,167.4833,70.92,79,100,8.03,overcast clouds
284,Tambopata,PE,-12.7333,-69.1833,78.69,78,75,2.3,broken clouds
285,Radcliff,US,37.8404,-85.9491,77.83,94,75,6.91,light rain
286,Husainabad,IN,24.5333,84.0167,89.28,58,73,3.02,broken clouds
287,Santiago De Cao,PE,-7.9589,-79.2392,60.93,82,100,10.36,fog
288,San Cristobal,VE,7.7669,-72.225,82.58,51,100,6.69,overcast clouds
289,Labuhan,ID,-6.8844,112.2051,75.38,85,69,5.7,broken clouds
290,Ambulu,ID,-8.345,113.6058,72.93,91,45,2.84,scattered clouds
291,Gospic,HR,44.5461,15.3747,87.49,29,0,4.88,clear sky
292,Pandamatenga,BW,-18.5278,25.627,74.05,31,0,5.91,clear sky
293,Vanimo,PG,-2.6741,141.3028,76.17,90,95,1.3,overcast clouds
294,Winslow,US,35.0242,-110.6974,73.58,60,0,5.75,clear sky
295,Port Blair,IN,11.6667,92.75,82.44,83,75,14.97,drizzle
296,Olot,ES,42.181,2.4901,78.08,97,61,1.01,light rain
297,Talaya,RU,61.3833,152.75,58.69,89,82,5.41,broken clouds
298,Plouzane,FR,48.3833,-4.6167,69.85,52,40,14.97,scattered clouds
299,Amzya,RU,56.2354,54.3868,70.39,66,72,3.29,broken clouds
300,Mecca,SA,21.4267,39.8261,86.4,53,71,2.84,broken clouds
301,Arman,RU,59.7,150.1667,57.02,98,98,5.37,overcast clouds
302,Ponta Delgada,PT,37.7333,-25.6667,77.72,83,20,8.05,few clouds
303,Abnub,EG,27.2696,31.1511,98.82,14,2,13.22,clear sky
304,Shancheng,CN,34.7953,116.0817,84.36,76,0,7.67,clear sky
305,Almaznyy,RU,48.0448,40.045,71.04,68,100,9.93,overcast clouds
306,Belawan,ID,3.7755,98.6832,80.89,85,97,4.05,moderate rain
307,Te Anau,NZ,-45.4167,167.7167,46.2,93,86,3.83,overcast clouds
308,Mingshui,CN,36.7167,117.5,83.98,79,0,7.54,clear sky
309,Rute,ES,37.3269,-4.3683,96.4,13,0,12.08,clear sky
310,Moron,AR,-34.6534,-58.6198,61.97,38,0,3.91,clear sky
311,Fairbanks,US,64.8378,-147.7164,55.36,93,100,6.91,overcast clouds
312,Daru,PG,-9.0763,143.2092,77.85,91,90,12.91,overcast clouds
313,Almeirim,BR,-1.5233,-52.5817,90.55,49,1,5.95,clear sky
314,Coahuayana,MX,18.7333,-103.6833,86.29,66,65,1.43,broken clouds
315,Proletariy,RU,58.4342,31.7046,78.08,57,62,2.66,broken clouds
316,Gornopravdinsk,RU,60.05,69.9,66.29,67,89,3.36,overcast clouds
317,Mackenzie,CA,55.2999,-123.1698,52.02,87,0,2.3,clear sky
318,Narsaq,GL,60.9167,-46.05,48.42,94,100,3.76,light rain
319,Barra Do Garcas,BR,-15.89,-52.2567,93.78,24,0,4.61,clear sky
320,Otane,NZ,-39.8833,176.6333,45.32,65,100,2.15,overcast clouds
321,Bambous Virieux,MU,-20.3428,57.7575,71.22,73,40,11.5,scattered clouds
322,Saldanha,ZA,-33.0117,17.9442,56.23,92,8,5.12,clear sky
323,Xichang,CN,27.8964,102.2634,67.05,90,67,3.22,broken clouds
324,Kamarion,GR,36.8,25.8167,79.09,78,0,15.21,clear sky
325,Vila Franca Do Campo,PT,37.7167,-25.4333,77.41,72,25,8.81,scattered clouds
326,Neulengbach,AT,48.1974,15.9022,99.75,39,9,1.99,clear sky
327,Sibolga,ID,1.7427,98.7792,77.52,71,99,3.29,overcast clouds
328,Boa Vista,BR,2.8197,-60.6733,89.58,58,75,11.5,broken clouds
329,Srednekolymsk,RU,67.45,153.6833,45.52,69,29,2.68,scattered clouds
330,Korla,CN,41.7597,86.1469,89.91,20,77,13.53,broken clouds
331,Norman Wells,CA,65.282,-126.8329,64.44,68,75,4.61,broken clouds
332,Gat,IL,31.61,34.7642,89.4,100,0,10.56,clear sky
333,Ewa Beach,US,21.3156,-158.0072,75.15,84,0,3.44,clear sky
334,Oktyabrskiy,RU,54.4815,53.471,69.58,61,1,4.74,clear sky
335,Ilula,TZ,-7.6766,36.0366,59.7,70,33,7.4,scattered clouds
336,Tucurui,BR,-3.7661,-49.6725,92.98,43,25,5.3,scattered clouds
337,Ixtapa,MX,20.7,-105.2,89.22,71,28,2.46,scattered clouds
338,Kaitangata,NZ,-46.2817,169.8464,49.51,84,100,5.26,moderate rain
339,Mindelo,CV,16.8901,-24.9804,81.95,65,20,4.61,few clouds
340,Elko,US,41.0002,-115.5012,68.23,62,100,5.01,overcast clouds
341,Rjukan,NO,59.8789,8.5941,67.44,36,85,9.75,overcast clouds
342,Khandyga,RU,62.6667,135.6,66.79,62,100,8.59,overcast clouds
343,Dzhebariki-Khaya,RU,62.2167,135.8,64.96,66,100,5.88,overcast clouds
344,Ancud,CL,-41.8697,-73.8203,42.22,72,89,8.81,overcast clouds
345,Shihezi,CN,44.3,86.0333,84.79,30,89,4.47,overcast clouds
346,Moa,CU,20.6569,-74.9403,85.57,67,75,15.68,broken clouds
347,Khonsa,IN,27.0167,95.5667,69.89,99,100,4.16,overcast clouds
348,Punta Cardon,VE,11.6581,-70.215,84.31,66,32,25.17,scattered clouds
349,Zlobin,HR,45.2924,14.6541,85.3,26,0,4.61,clear sky
350,Bredy,RU,52.4153,60.3411,69.01,55,73,9.06,broken clouds
351,Kushmurun,KZ,52.4503,64.6311,70.74,56,7,9.48,clear sky
352,Road Town,VG,18.4167,-64.6167,91.49,70,40,16.11,scattered clouds
353,Nara,JP,34.6851,135.8049,79.97,75,65,3.04,broken clouds
354,Westport,US,41.1415,-73.3579,89.31,78,0,5.75,clear sky
355,Maridi,SS,4.9158,29.4742,72.55,87,22,1.39,light rain
356,Bemidji,US,47.4736,-94.8803,80.91,58,40,10.36,scattered clouds
357,Coihaique,CL,-45.5752,-72.0662,32.61,86,40,5.75,scattered clouds
358,Ocean City,US,39.2776,-74.5746,88.18,74,100,5.01,overcast clouds
359,Nanortalik,GL,60.1432,-45.2371,45.66,92,100,6.51,light rain
360,Ucluelet,CA,48.9329,-125.5528,56.08,92,0,1.34,clear sky
361,Boca Do Acre,BR,-8.7522,-67.3978,75.85,88,100,2.86,overcast clouds
362,Geraldton,AU,-28.7667,114.6,46.81,93,44,10.36,scattered clouds
363,El Alto,PE,-4.2714,-81.2147,65.86,67,32,13.65,scattered clouds
364,Wadi Maliz,TN,36.4681,8.5495,101.86,29,46,6.87,scattered clouds
365,Mackay,AU,-21.15,149.2,66.72,93,1,4.85,clear sky
366,Athens,GR,37.9795,23.7162,91.24,37,20,15.01,few clouds
367,Sembe,CG,1.6481,14.5806,77.27,87,68,0.85,moderate rain
368,Siva,EG,29.2041,25.5195,97.36,15,0,10.69,clear sky
369,Gravdal,NO,68.1214,13.5031,53.49,82,40,20.71,light intensity shower rain
370,Vostok,RU,46.4856,135.8833,64.2,99,100,4.38,overcast clouds
371,Codrington,AU,-38.2667,141.9667,42.19,97,8,7.65,clear sky
372,Abalak,RU,58.1286,68.5944,68.22,61,62,4.14,broken clouds
373,Cabo San Lucas,MX,22.8909,-109.9124,92.61,57,96,1.99,overcast clouds
374,Murray Bridge,AU,-35.1167,139.2667,53.13,74,59,14.9,broken clouds
375,Vanderhoof,CA,54.0166,-124.0198,52.56,90,100,0.74,overcast clouds
376,Oistins,BB,13.0667,-59.5333,87.89,70,40,24.16,scattered clouds
377,Nakasongola,UG,1.3089,32.4564,74.14,57,98,5.82,overcast clouds
378,Jiangyan,CN,32.5061,120.1428,77.95,81,79,7.63,broken clouds
379,Kongolo,CD,-5.3833,27.0,89.64,23,30,3.6,scattered clouds
380,Xai-Xai,MZ,-25.0519,33.6442,68.43,78,0,6.73,clear sky
381,San Quintin,MX,30.4833,-115.95,72.3,81,16,11.48,few clouds
382,San Antonio,US,29.4241,-98.4936,88.9,67,75,9.22,broken clouds
383,Chernyshevskiy,RU,63.0128,112.4714,45.01,97,100,9.86,moderate rain
384,Port Said,EG,31.2565,32.2841,84.18,79,0,11.5,clear sky
385,Dharchula,IN,29.85,80.5333,73.4,95,84,1.48,broken clouds
386,Mayenne,FR,48.3333,-0.6667,76.44,27,9,14.92,clear sky
387,Ngunguru,NZ,-35.6167,174.5,50.25,75,24,4.65,few clouds
388,Khairpur,PK,27.5295,68.7617,95.0,47,61,12.28,broken clouds
389,Nemuro,JP,43.3236,145.575,58.08,80,98,7.38,overcast clouds
390,Bucine,IT,43.4764,11.6148,96.19,24,32,16.02,scattered clouds
391,North Bend,US,43.4065,-124.2243,66.16,94,0,5.75,mist
392,Soe,ID,-9.8607,124.284,60.35,94,64,3.15,broken clouds
393,Deputatskiy,RU,69.3,139.9,44.76,72,84,2.59,broken clouds
394,Scarborough,GB,54.2797,-0.4044,64.33,67,96,3.0,overcast clouds
395,Wajid,SO,3.8093,43.2471,84.87,34,46,17.11,scattered clouds
396,Kamenka,RU,51.3223,42.7678,78.89,44,81,6.89,broken clouds
397,George Town,MY,5.4112,100.3354,85.89,84,40,3.44,scattered clouds
398,Huambo,AO,-12.7761,15.7392,80.46,16,6,7.07,clear sky
399,Camalu,MX,30.85,-116.0667,72.82,80,0,7.25,clear sky
400,Alvinopolis,BR,-20.1067,-43.0489,88.99,22,0,2.13,clear sky
401,De-Kastri,RU,51.4667,140.7833,59.36,97,100,12.19,overcast clouds
402,Port Elizabeth,ZA,-33.918,25.5701,62.89,84,20,17.27,few clouds
403,Issa,RU,53.8705,44.8578,74.03,62,92,6.22,overcast clouds
404,Moctezuma,MX,29.8,-109.6667,84.33,52,71,2.59,broken clouds
405,Anadyr,RU,64.75,177.4833,37.9,100,20,6.71,few clouds
406,Rabat,MA,33.9911,-6.8401,86.04,74,20,9.22,few clouds
407,Husavik,IS,66.0449,-17.3389,57.15,56,12,3.58,few clouds
408,Morlaix,FR,48.5833,-4.0,68.0,56,20,17.27,few clouds
409,Airai,TL,-8.9266,125.4092,57.47,92,97,2.77,overcast clouds
410,Kagadi,UG,0.9606,30.7967,71.78,63,78,2.53,broken clouds
411,Mmabatho,ZA,-25.85,25.6333,73.36,17,0,4.61,clear sky
412,Danilovka,RU,50.3557,44.1168,80.83,36,80,12.59,broken clouds
413,Chitral,PK,35.8462,71.7858,79.7,57,62,4.99,broken clouds
414,Monrovia,LR,6.3005,-10.7969,80.37,75,100,11.01,overcast clouds
415,Sampit,ID,-2.5333,112.95,72.46,97,65,2.28,broken clouds
416,Saint-Louis,SN,16.3333,-15.0,100.04,37,52,5.99,broken clouds
417,Torrington,US,41.8007,-73.1212,88.86,64,100,1.99,overcast clouds
418,Portsoy,GB,57.6814,-2.6896,62.55,53,47,11.99,scattered clouds
419,Neiafu,TO,-18.65,-173.9833,77.68,88,75,6.91,broken clouds
420,Payson,US,40.0444,-111.7321,85.55,42,75,8.05,broken clouds
421,Nelson Bay,AU,-32.7167,152.15,60.01,82,0,8.99,clear sky
422,San,ML,13.3034,-4.8956,83.5,58,98,8.75,overcast clouds
423,Rayachoti,IN,14.05,78.75,77.88,73,100,14.05,overcast clouds
424,Newport,GB,51.5877,-2.9984,74.08,49,27,14.61,scattered clouds
425,Aksu,CN,41.1231,80.2644,78.67,43,97,4.0,overcast clouds
426,Lake Charles,US,30.2131,-93.2044,85.98,78,75,10.36,broken clouds
427,Khasan,RU,42.4308,130.6434,72.21,97,64,1.25,broken clouds
428,Gigmoto,PH,13.7796,124.39,79.66,85,100,9.57,overcast clouds
429,Ban Chang,TH,12.7254,101.0553,80.47,83,40,4.61,scattered clouds
430,Paragominas,BR,-2.9667,-47.4833,85.35,58,78,5.37,broken clouds
431,Nioro,GM,13.35,-15.75,77.68,88,98,7.29,overcast clouds
432,Kyzyl-Suu,KG,42.3414,78.0056,64.26,65,100,4.03,overcast clouds
433,Dakar,SN,14.6937,-17.4441,86.88,83,75,6.91,thunderstorm with light rain
434,Katobu,ID,-4.9408,122.5276,72.84,92,18,2.44,few clouds
435,San Juan,AR,-31.5375,-68.5364,60.39,36,2,4.27,clear sky
436,Ambovombe,MG,-25.1667,46.0833,68.36,79,45,10.27,scattered clouds
437,Rehoboth,NA,-23.3167,17.0833,75.47,12,0,11.41,clear sky
438,Mercedes,AR,-34.6515,-59.4307,58.86,37,0,4.23,clear sky
439,Lasa,IT,46.6166,10.7002,88.7,65,26,1.5,light rain
440,Laguna,US,38.421,-121.4238,70.43,72,75,14.97,broken clouds
441,Surt,LY,31.2089,16.5887,84.09,60,17,14.81,few clouds
442,Ende,ID,-8.8432,121.6623,70.5,80,44,2.1,scattered clouds
443,Flin Flon,CA,54.7682,-101.865,58.84,94,75,3.44,broken clouds
444,Oranjemund,NA,-28.55,16.4333,57.4,73,100,10.07,overcast clouds
445,Hokitika,NZ,-42.7167,170.9667,56.41,97,100,22.3,moderate rain
446,Snina,SK,48.9886,22.151,89.35,28,0,3.83,clear sky
447,Cherskiy,RU,68.75,161.3,47.32,72,100,7.87,overcast clouds
448,Houma,US,29.5958,-90.7195,84.99,86,75,1.99,broken clouds
449,Jalu,LY,29.0331,21.5482,97.23,17,0,15.3,clear sky
450,Salgueiro,BR,-8.0742,-39.1192,87.37,37,37,14.58,scattered clouds
451,Vestmannaeyjar,IS,63.4427,-20.2734,52.79,87,75,9.22,broken clouds
452,Arieseni,RO,46.4833,22.7667,75.97,40,5,3.98,clear sky
453,Nipawin,CA,53.3668,-104.0009,62.64,72,75,16.11,broken clouds
454,Iqaluit,CA,63.7506,-68.5145,38.93,93,100,6.91,overcast clouds
455,Caohai,CN,26.8661,104.2841,58.91,95,58,4.29,broken clouds
456,Hakkari,TR,37.5833,44.1667,77.67,23,35,6.22,scattered clouds
457,Ahuimanu,US,21.4447,-157.8378,74.91,89,75,4.61,moderate rain
458,Palmares Do Sul,BR,-30.2578,-50.5097,56.68,76,95,15.17,overcast clouds
459,Pavlodar,KZ,52.3,76.95,64.2,52,0,6.71,clear sky
460,Rakai,UG,-0.72,31.4839,70.16,53,44,8.41,scattered clouds
461,Komsomolskiy,UZ,40.4272,71.7189,84.52,27,69,9.73,broken clouds
462,Limpapa,PH,7.1197,121.9106,76.33,84,90,2.68,overcast clouds
463,Savelugu,GH,9.6244,-0.8253,82.87,66,99,6.69,overcast clouds
464,Puerto Escondido,MX,15.85,-97.0667,84.33,65,13,5.48,few clouds
465,Aykhal,RU,66.0,111.5,49.42,81,100,16.13,overcast clouds
466,Eureka,US,40.8021,-124.1637,65.19,86,10,4.0,clear sky
467,Haines Junction,CA,60.7522,-137.5108,55.35,62,100,3.44,overcast clouds
468,Cayenne,GF,4.9333,-52.3333,87.84,13,20,11.5,few clouds
469,Huarmey,PE,-10.0681,-78.1522,66.16,74,100,10.38,overcast clouds
470,Hirara,JP,24.8,125.2833,84.56,73,6,9.37,clear sky
471,Dalby,AU,-27.1833,151.2667,56.66,92,100,3.42,light rain
472,Nanakuli,US,21.3906,-158.1547,75.15,83,0,3.44,clear sky
473,Chibombo,ZM,-14.6569,28.0706,70.97,30,1,5.44,clear sky
474,Orcopampa,PE,-15.2661,-72.3417,51.71,43,92,3.83,overcast clouds
475,Barranca,PE,-10.75,-77.7667,64.09,74,100,10.0,overcast clouds
476,Pitimbu,BR,-7.4706,-34.8086,81.19,65,42,12.86,scattered clouds
477,La Rioja,ES,42.25,-2.5,78.58,46,32,9.26,scattered clouds
478,Beeskow,DE,52.1667,14.25,85.33,51,36,6.85,scattered clouds
479,Dalmatovo,RU,56.26,62.9362,70.02,55,24,4.29,few clouds
480,Fare,PF,-16.7,-151.0167,77.99,76,95,25.9,light rain
481,Coracao De Maria,BR,-12.2333,-38.75,84.27,39,5,9.06,clear sky
482,Constitucion,CL,-35.3333,-72.4167,55.96,71,100,2.08,moderate rain
483,Faya,SA,18.3851,42.4509,68.11,72,94,5.1,overcast clouds
484,Warrnambool,AU,-38.3833,142.4833,44.91,91,0,8.81,clear sky
485,Souillac,MU,-20.5167,57.5167,70.18,73,40,11.5,scattered clouds
486,Yabassi,CM,4.457,9.9682,78.3,89,85,4.85,moderate rain
487,Pasadena,US,29.6911,-95.2091,93.06,67,75,5.99,broken clouds
488,Ahipara,NZ,-35.1667,173.1667,50.85,90,82,4.25,broken clouds
489,Jaen,ES,38.0,-3.5,101.25,12,0,15.03,clear sky
490,Marsa Matruh,EG,31.3525,27.2453,86.2,58,0,14.97,clear sky
491,Gao,ML,16.6362,1.637,96.26,30,4,5.3,clear sky
492,Vardo,NO,70.3705,31.1107,58.98,88,75,10.36,broken clouds
493,Yumen,CN,40.2833,97.2,77.97,37,100,12.55,overcast clouds
494,Misratah,LY,32.3754,15.0925,85.1,53,8,11.86,clear sky
495,Shitanjing,CN,39.2342,106.3439,83.91,49,6,5.86,clear sky
496,Yambio,SS,4.5721,28.3955,74.19,90,83,1.45,broken clouds
497,Chegdomyn,RU,51.1167,133.0167,63.64,98,100,2.35,light rain
498,Camacha,PT,33.0833,-16.3333,71.02,78,75,10.36,broken clouds
499,Rawson,AR,-43.3002,-65.1023,45.46,62,15,20.45,few clouds
500,Southampton,GB,50.904,-1.4043,75.04,45,0,8.05,clear sky
501,Batticaloa,LK,7.7102,81.6924,82.63,61,100,18.28,overcast clouds
502,Washington,US,47.5001,-120.5015,61.57,49,1,3.33,clear sky
503,Buraydah,SA,26.326,43.975,113.45,10,18,8.25,few clouds
504,Belaya Gora,RU,68.5333,146.4167,45.45,84,99,4.07,overcast clouds
505,Kaeo,NZ,-35.1,173.7833,44.33,93,51,1.74,broken clouds
506,Mwingi,KE,-0.9344,38.0601,69.17,57,93,11.63,overcast clouds
507,Bontang,ID,0.1333,117.5,76.53,90,24,8.5,few clouds
508,Imeni Poliny Osipenko,RU,52.4201,136.4853,61.77,97,100,4.85,overcast clouds
509,Mineros,BO,-17.1167,-63.2333,71.02,45,100,8.21,overcast clouds
510,Jacmel,HT,18.2342,-72.5347,93.04,55,55,5.64,broken clouds
511,Jiayuguan,CN,39.8167,98.3,81.82,26,99,8.39,overcast clouds
512,Collie,AU,-33.3667,116.15,46.02,92,37,1.92,scattered clouds
513,Beloha,MG,-25.1667,45.05,66.52,68,0,6.35,clear sky
514,Narrabri,AU,-30.3167,149.7833,54.52,93,81,1.99,broken clouds
515,Fort Saint James,CA,54.4333,-124.25,52.72,86,100,0.47,overcast clouds
516,Nova Odesa,UA,47.3078,31.7851,81.52,44,99,0.65,overcast clouds
517,Tigil,RU,57.8,158.6667,49.75,90,65,5.19,broken clouds
518,Blagoyevo,RU,63.3667,47.9167,75.45,56,74,5.88,broken clouds
519,Harper,LR,4.375,-7.7169,77.18,73,100,7.85,overcast clouds
520,Zabaykalsk,RU,49.6333,117.3167,61.83,65,3,7.61,clear sky
521,Kraskino,RU,42.7114,130.7794,73.04,99,91,0.96,overcast clouds
522,Dunedin,NZ,-45.8742,170.5036,56.8,64,100,3.78,light rain
523,Brigantine,US,39.4101,-74.3646,88.2,68,0,6.91,clear sky
524,Basco,PH,20.4487,121.9702,84.52,76,72,14.16,broken clouds
525,Krasnoselkup,RU,65.7,82.4667,62.94,71,51,3.27,broken clouds
526,Anupgarh,IN,29.1911,73.2086,90.27,61,100,9.42,overcast clouds
527,Skjervoy,NO,70.0311,20.9714,59.0,80,85,3.89,overcast clouds
528,Nenjiang,CN,49.1833,125.2167,63.45,84,0,8.68,clear sky
529,Parauna,BR,-16.9478,-50.4486,89.31,18,15,5.39,few clouds
530,Port Augusta,AU,-32.5,137.7667,46.62,89,1,6.98,clear sky
531,Tchibanga,GA,-2.85,11.0333,78.57,58,89,5.97,overcast clouds
532,Cukai,MY,4.25,103.4167,73.35,87,100,2.53,overcast clouds
533,Zunyi,CN,27.6867,106.9072,70.99,94,63,1.57,broken clouds
534,Cap Malheureux,MU,-19.9842,57.6142,71.47,67,0,3.0,clear sky
535,Charagua,BO,-19.8,-63.2167,63.97,38,94,4.14,overcast clouds
536,Teguise,ES,29.0605,-13.564,80.82,54,20,25.32,few clouds
537,Ntungamo,UG,-0.8833,29.65,73.87,61,71,1.41,broken clouds
538,Vila Velha,BR,-20.3297,-40.2925,87.75,54,0,13.8,clear sky
539,Paamiut,GL,61.994,-49.6678,45.84,89,100,16.75,light rain
540,Taylor,US,32.3001,-99.8337,94.42,35,0,13.8,clear sky
541,Marsaxlokk,MT,35.8419,14.5431,92.01,35,0,11.5,clear sky
542,Venado Tuerto,AR,-33.7456,-61.9688,59.77,24,1,8.03,clear sky
543,Eyl,SO,7.9803,49.8164,77.2,76,6,26.75,clear sky
544,Nador,MA,35.174,-2.9287,89.67,70,20,9.22,few clouds
545,Zhangye,CN,38.9342,100.4517,86.2,36,66,4.52,broken clouds
546,Luba,GQ,3.4568,8.5547,78.69,87,76,9.62,light rain
547,Beyneu,KZ,45.3167,55.2,90.14,20,2,12.55,clear sky
548,Adrar,MR,20.5022,-10.0711,103.48,18,9,2.04,clear sky
549,Outram,MY,1.2829,103.8379,80.53,75,75,2.3,light rain
550,Shache,CN,38.4167,77.2406,77.86,42,84,3.51,broken clouds
551,Tabou,CI,4.423,-7.3528,77.0,73,100,7.18,overcast clouds
552,Mahibadhoo,MV,3.7833,72.9667,81.9,77,100,16.11,overcast clouds
553,Sri Aman,MY,1.2376,111.4621,75.25,94,100,0.0,overcast clouds
554,Troitskoye,RU,52.9821,84.6757,59.23,60,41,5.66,scattered clouds
555,Asosa,ET,10.0667,34.5333,62.58,98,100,0.67,light rain
556,Clyde River,CA,70.4692,-68.5914,48.43,76,75,13.8,broken clouds
557,Ornskoldsvik,SE,63.2909,18.7153,65.35,68,20,5.75,few clouds
558,Allahganj,IN,27.55,79.6833,89.82,58,90,4.97,overcast clouds
559,Manicore,BR,-5.8092,-61.3003,97.68,26,10,5.53,clear sky
560,Tank,PK,32.2217,70.3793,99.57,35,16,11.63,few clouds
561,Bubaque,GW,11.2833,-15.8333,75.9,94,100,18.19,heavy intensity rain
562,Fuerte Olimpo,PY,-21.0415,-57.8738,77.18,49,60,5.57,broken clouds
563,Yerbogachen,RU,61.2767,108.0108,51.21,88,100,6.24,overcast clouds
564,Belmonte,BR,-15.8631,-38.8828,77.31,69,61,9.69,broken clouds
565,Havre-Saint-Pierre,CA,50.2334,-63.5986,71.96,78,20,9.22,few clouds
566,Pacifica,US,37.6138,-122.4869,68.97,83,75,6.91,mist
567,Nuuk,GL,64.1835,-51.7216,45.88,93,100,41.0,overcast clouds
568,Solnechnyy,RU,50.7214,136.6319,64.35,96,100,3.65,moderate rain
569,Sant Julia De Loria,AD,42.4625,1.4825,64.2,73,75,10.36,light rain
570,Ichinoseki,JP,38.9167,141.1333,61.2,96,80,1.48,broken clouds
571,Hovd,MN,48.0056,91.6419,60.01,68,14,5.26,few clouds
572,Nizhniy Baskunchak,RU,48.2198,46.8311,88.39,21,100,10.42,overcast clouds
573,Camacari,BR,-12.6975,-38.3242,80.37,53,5,8.52,clear sky
574,Pokhara,NP,28.2333,83.9833,73.65,93,88,2.26,overcast clouds
575,Olafsvik,IS,64.8945,-23.7142,51.44,92,100,15.7,overcast clouds
576,Mnogovershinnyy,RU,53.9353,139.9242,59.65,93,65,4.63,broken clouds
577,Qasigiannguit,GL,68.8193,-51.1922,43.54,90,100,4.29,overcast clouds
578,Ambanja,MG,-13.6833,48.45,75.13,78,9,2.21,clear sky
579,Baghdad,IQ,33.3406,44.4009,114.71,17,0,8.05,clear sky
580,Sao Raimundo Das Mangabeiras,BR,-7.0219,-45.4811,93.9,34,75,10.45,broken clouds
581,Kahului,US,20.8947,-156.47,76.84,73,0,4.0,clear sky
582,Koulamoutou,GA,-1.1303,12.4736,77.38,53,100,4.63,overcast clouds
583,Yakeshi,CN,49.2833,120.7333,57.88,80,35,6.64,scattered clouds
584,Bilibino,RU,68.0546,166.4372,42.6,84,92,5.97,overcast clouds
585,Anito,PH,12.4497,125.2886,76.01,94,100,6.67,overcast clouds
586,Los Llanos De Aridane,ES,28.6585,-17.9182,77.13,76,75,14.97,broken clouds
587,Bobo Dioulasso,BF,11.1771,-4.2979,84.65,65,40,10.36,scattered clouds
588,Lagos,NG,6.5833,3.75,86.32,62,55,8.3,broken clouds
589,Bowen,AU,-20.0167,148.2333,68.16,90,4,1.21,clear sky
590,Omboue,GA,-1.5746,9.2618,74.3,76,97,10.22,overcast clouds
591,Lloydminster,CA,53.2835,-110.0016,50.22,93,100,20.71,mist
592,Palmer,US,42.1584,-72.3287,89.51,60,75,5.75,broken clouds
593,Sand Springs,US,36.1398,-96.1089,88.18,70,1,1.01,clear sky
594,Rocha,UY,-34.4833,-54.3333,55.81,61,3,9.78,clear sky
595,Orlik,RU,52.5178,99.825,44.46,70,10,3.22,clear sky
596,Ilinskiy,RU,55.619,38.1182,86.38,31,0,8.99,clear sky
597,Kayes,ML,14.0,-11.0,89.02,52,100,1.54,overcast clouds
598,Kudahuvadhoo,MV,2.6708,72.8944,81.54,77,100,16.4,light rain
599,Guerrero Negro,MX,27.9769,-114.0611,75.04,71,1,12.12,clear sky
600,Lagoa,PT,39.05,-27.9833,75.25,78,18,5.19,few clouds
601,Bairiki,KI,1.3292,172.9752,80.6,83,20,4.61,few clouds
602,Monte Carmelo,BR,-18.7247,-47.4986,85.68,22,2,4.92,clear sky
603,Varzea Grande,BR,-15.6467,-56.1325,89.47,29,0,6.91,clear sky
604,Sloboda,RU,51.1421,40.3021,75.72,59,89,6.69,overcast clouds
605,Ojinaga,MX,29.5667,-104.4167,94.57,37,0,8.05,clear sky
606,Upata,VE,8.0086,-62.3989,80.19,68,23,5.88,few clouds
607,Vryburg,ZA,-26.9566,24.7284,63.16,30,58,2.51,broken clouds
608,Saint Charles,US,38.7667,-90.7335,88.88,76,75,5.01,broken clouds
609,Alofi,NU,-19.0595,-169.9187,73.29,100,100,6.91,overcast clouds
610,Suntar,RU,62.1444,117.6319,46.45,97,100,7.36,moderate rain
611,Champasak,LA,14.75,106.0,72.82,95,100,2.01,overcast clouds
612,Ust-Maya,RU,60.4167,134.5333,63.05,71,71,11.41,broken clouds
613,Aswan,EG,24.0934,32.907,108.7,13,0,9.22,clear sky
614,Curup,ID,-3.4667,102.5333,66.47,85,100,1.74,overcast clouds
615,Sulangan,PH,11.1373,123.7228,82.0,76,100,6.44,light rain
616,Dioknisi,GE,41.6293,42.3917,66.88,98,59,4.45,broken clouds
617,Inuvik,CA,68.3499,-133.7218,67.06,54,20,5.75,few clouds
618,Cortez,US,37.3489,-108.5859,71.71,63,100,6.73,overcast clouds
619,Dolinsk,RU,47.35,142.8,55.13,92,99,7.54,overcast clouds
620,Prabumulih,ID,-3.45,104.25,73.87,94,100,1.95,overcast clouds
621,Marau,BR,-28.4492,-52.2,55.35,62,33,5.53,scattered clouds
622,Rabo De Peixe,PT,37.8,-25.5833,76.51,83,20,8.05,few clouds
623,Chanute,US,37.6792,-95.4572,91.45,49,0,10.51,clear sky
624,Havelock,US,34.8791,-76.9013,89.58,76,83,3.0,broken clouds
625,Yatou,CN,37.15,122.3833,80.33,92,27,5.95,scattered clouds
626,Durango,MX,24.8333,-104.8333,72.88,51,33,7.43,scattered clouds
627,Kosh-Agach,RU,50.0,88.6667,46.53,87,83,2.64,broken clouds
628,Port Macquarie,AU,-31.4333,152.9167,57.88,75,30,6.13,scattered clouds
629,Zelenogradsk,RU,54.9589,20.4767,86.05,45,0,8.95,clear sky
630,Stargard Szczecinski,PL,53.3367,15.0499,80.15,19,98,5.01,overcast clouds
631,Tamandare,BR,-8.7597,-35.1047,79.97,63,52,10.0,broken clouds
632,Cockburn Town,TC,21.4612,-71.1419,82.2,77,100,20.04,overcast clouds
633,Boende,CD,-0.2167,20.8667,81.52,61,76,3.11,broken clouds
634,Kununurra,AU,-15.7667,128.7333,71.58,78,28,3.44,scattered clouds
635,Tomatlan,MX,19.9333,-105.25,85.8,73,37,1.81,scattered clouds
636,Hamilton,US,39.1834,-84.5333,78.31,100,100,9.22,moderate rain
637,Sobolevo,RU,54.4299,31.8996,75.97,76,8,5.79,clear sky
638,Asyut,EG,27.181,31.1837,98.78,14,6,13.42,clear sky
639,San Fernando,PH,15.0286,120.6898,80.33,95,98,1.19,moderate rain
640,Meadow Lake,US,34.8014,-106.5436,83.32,40,100,4.9,overcast clouds
641,Sur,OM,22.5667,59.5289,85.44,67,87,8.48,overcast clouds
642,Atyrau,KZ,47.1167,51.8833,91.42,18,0,8.95,clear sky
643,Benguela,AO,-12.5763,13.4055,70.48,75,24,8.32,few clouds
644,Neftcala,AZ,39.3742,49.2472,82.18,66,0,9.8,clear sky
645,Kavaratti,IN,10.5669,72.642,80.17,82,100,21.77,overcast clouds
646,Saint-Joseph,RE,-21.3667,55.6167,68.38,75,32,9.19,scattered clouds
647,Sungaipenuh,ID,-2.0833,101.3833,64.72,94,100,1.07,overcast clouds
648,Meiganga,CM,6.5167,14.3,67.55,94,100,3.65,light rain
649,Nkayi,CG,-4.1841,13.2884,89.58,37,69,7.31,broken clouds
650,Grindavik,IS,63.8424,-22.4338,55.35,87,75,16.11,broken clouds
651,Acarau,BR,-2.8856,-40.12,87.03,52,3,17.29,clear sky
652,Manali,IN,13.1667,80.2667,84.29,81,100,16.28,overcast clouds
653,Sibut,CF,5.718,19.0739,74.91,93,76,4.54,moderate rain
654,Namatanai,PG,-3.6667,152.4333,78.21,80,100,4.81,overcast clouds
655,Mareeba,AU,-17.0,145.4333,68.72,97,40,1.59,scattered clouds
656,Wattegama,LK,6.7989,81.4808,77.67,68,100,8.97,overcast clouds
657,Zeerust,ZA,-25.5369,26.0751,65.16,16,7,6.67,clear sky
658,San Patricio,US,28.017,-97.5169,91.87,44,99,10.22,overcast clouds
659,Bereda,ES,43.2686,-7.5406,67.41,95,98,10.13,overcast clouds
660,Afrikanda,RU,67.4429,32.7828,63.9,95,99,3.62,light rain
661,Oriximina,BR,-1.7656,-55.8661,92.21,44,0,5.66,clear sky
662,Caramay,PH,10.1815,119.236,78.8,82,100,2.19,moderate rain
663,Doha,QA,25.2867,51.5333,96.78,71,3,9.22,clear sky
664,Ust-Kuyga,RU,70.0167,135.6,48.69,75,100,6.49,overcast clouds
665,Le Pradet,FR,43.1066,6.0172,99.61,69,0,16.11,clear sky
666,Contramaestre,CU,20.2978,-76.2414,87.3,57,78,7.99,broken clouds
667,Omsukchan,RU,62.5333,155.8,54.23,94,95,5.12,overcast clouds
668,Sao Jose Da Coroa Grande,BR,-8.8978,-35.1478,79.32,67,42,10.16,scattered clouds
669,Verkhnyaya Inta,RU,65.9811,60.3094,64.89,83,70,10.11,light rain
670,Hauterive,FR,46.0901,3.4459,83.16,42,100,9.06,overcast clouds
671,Kopavogur,IS,64.1123,-21.913,55.11,71,75,14.97,broken clouds
672,Ambilobe,MG,-13.2,49.05,72.5,69,67,1.66,light rain
673,Arrah,IN,25.5667,84.6667,89.49,51,100,3.96,overcast clouds
674,Gunjur,GM,13.2019,-16.7339,83.34,71,86,8.88,moderate rain
675,Ambunti,PG,-4.2365,142.8448,72.32,99,100,1.9,light rain
676,Kitimat,CA,54.0524,-128.6534,58.91,25,86,0.65,overcast clouds
677,Otradnoye,RU,59.7775,30.8181,85.03,48,5,5.73,clear sky
678,Copiapo,CL,-27.3667,-70.3333,53.29,27,15,4.65,few clouds
679,Kyra,RU,49.5776,111.9753,55.31,90,49,5.1,scattered clouds
680,Lakes Entrance,AU,-37.8811,147.981,50.16,75,93,5.97,moderate rain
681,Hobyo,SO,5.3505,48.5268,76.86,77,47,28.7,scattered clouds
682,Batagay,RU,67.6333,134.6333,55.51,59,100,0.83,overcast clouds
683,Abu Samrah,SY,35.3029,37.1841,98.56,20,20,15.12,few clouds
684,Kidal,ML,18.4411,1.4078,99.61,26,46,5.5,scattered clouds
685,La Asuncion,VE,11.0333,-63.8628,83.93,79,77,13.8,broken clouds
686,Steamboat Springs,US,40.485,-106.8317,75.7,50,0,3.44,clear sky
687,Estelle,US,29.8458,-90.1067,88.0,73,75,10.36,broken clouds
688,Vilyuysk,RU,63.7553,121.6247,61.05,99,100,1.99,moderate rain
689,Aflao,TG,6.116,1.1914,80.73,69,20,14.97,few clouds
690,Kysyl-Syr,RU,63.8986,122.7617,62.58,98,100,7.58,light rain
691,Inirida,CO,3.8653,-67.9239,84.85,74,68,2.77,broken clouds
692,Bac Lieu,VN,9.285,105.7244,79.57,85,100,7.74,overcast clouds
693,Fengzhen,CN,40.4394,113.1536,75.24,35,33,4.52,scattered clouds
694,Ciudad Real,ES,39.0,-4.0,102.15,13,0,11.01,clear sky
695,Jati,PK,24.3539,68.2671,86.67,67,98,14.38,light rain
696,Tiznit,MA,29.5833,-9.5,96.75,17,6,10.27,clear sky
697,Sept-Iles,CA,50.2001,-66.3821,73.06,42,20,11.5,few clouds
698,Saquarema,BR,-22.92,-42.5103,93.34,45,25,5.35,scattered clouds
699,Carutapera,BR,-1.195,-46.02,83.77,68,51,10.27,broken clouds
700,Vallenar,CL,-28.5708,-70.7581,68.56,24,100,3.58,overcast clouds
701,At-Bashi,KG,41.1702,75.8106,61.68,53,98,2.08,overcast clouds
702,Jerantut,MY,3.936,102.3626,73.98,97,100,0.87,overcast clouds
703,Avera,US,33.194,-82.5271,88.56,51,84,5.39,broken clouds
704,Canatlan,MX,24.5167,-104.7833,72.63,53,11,8.52,few clouds
705,Susuman,RU,62.7833,148.1667,57.56,85,94,6.33,overcast clouds
706,Iglesias,IT,39.3114,8.535,85.42,35,2,7.07,clear sky
